[
 {
   "name": "50's Diner",
   "category": "American",
   "location": "4/F Porta Vaga Mall, Session Road, Baguio City",
   "longitude": "120.59855560000005",
   "latitude": "16.4119417"
 },
 {
   "name": "Amare La Cucina",
   "category": "Italian",
   "location": "EGI Albergo Hotel, 1 Villamor Dr, Lualhati, Baguio City",
   "longitude": "120.61740800000007",
   "latitude": "16.413665"
 },
 {
   "name": "Arca's Yard",
   "category": "International",
   "location": "777 Tiptop, Ambuklao Rd, Baguio City",
   "longitude": "120.62308400000006",
   "latitude": "16.4289289"
 },
 {
   "name": "Beggang Resto Grill",
   "category": "Filipino",
   "location": "Skating Rink, Burnham Park, Baguio City",
   "longitude": "none",
   "latitude": "none"
 },
 {
   "name": "Baguio Craft Brewery",
   "category": "International",
   "location": "Ben Palispis Highway, Baguio City",
   "longitude": "120.58062940000002",
   "latitude": "16.3952485"
 },
 {
   "name": "Cafe Adriana by Hill Station",
   "category": "Spanish",
   "location": "Outlook Ridge Residences, V. De los Reyes Street, DMCI, Outlook Drive, Baguio City",
   "longitude": "120.62475960000006",
   "latitude": "16.4128084"
 },
 {
   "name": "Cafe in the sky",
   "category": "Filipino",
   "location": "Mt Sto Tomas, Poblacion Kabuyao, Tuba, Baguio City",
   "longitude": "120.56072169999993",
   "latitude": "16.3622564"
 },
 {
   "name": "Cafe Will",
   "category": "International",
   "location": "MH Del Pilar Legarda Rd, Baguio City",
   "longitude": "120.59241129999998",
   "latitude": "16.4083373"
 },
 {
   "name": "Camping Date",
   "category": "Korean",
   "location": "363 Legarda Road, in front of Prince Plaza Hotel, Baguio",
   "longitude": "120.59137129999999",
   "latitude": "16.4097267"
 },
 {
   "name": "Classic Savory",
   "category": "Filipino",
   "location": "132 Upper Ground Floor, Sm City Baguio, Luneta Hill Drive,",
   "longitude": "none",
   "latitude": "none"
 },
 {
   "name": "Chef's Home",
   "category": "Asian",
   "location": "13 Outlook Dr cor Romulo Drive, Baguio City",
   "longitude": "120.58410200000003",
   "latitude": "16.399434"
 },
 {
   "name": "David's Tea house",
   "category": "Chinese",
   "location": "3/F SM City Baguio, Baguio City",
   "longitude": "120.59970799999996",
   "latitude": "16.4091379"
 },
 {
   "name": "Dencio's Bar and Grill",
   "category": "Filipino",
   "location": "Mile-Hi Center, Camp John Hay, Baguio City, Camp John Hay, Baguio, Benguet",
   "longitude": "120.61660000000006",
   "latitude": "16.401797"
 },
 {
   "name": "Don Henrico's",
   "category": "Italian",
   "location": "Lower G/F SM City Baguio, Baguio City",
   "longitude": "120.59939899999995",
   "latitude": "16.409354"
 },
 {
   "name": "Ebai's Cafe & Pastry",
   "category": "International",
   "location": "Narda Bldg., 151 Upper Session Rd, Baguio City",
   "longitude": "120.6015476",
   "latitude": "16.4059152"
 },
 {
   "name": "Foggy Mountain Cookhouse",
   "category": "Mediterranean",
   "location": "172 St Joseph Street, San Carlos Heights, Baguio City",
   "longitude": "120.56710320000002",
   "latitude": "16.4104011"
 },
 {
   "name": "Forest House Bistro & Cafe",
   "category": "International",
   "location": "16 Loakan Rd, Camp John Hay, Baguio City",
   "longitude": "120.60724470000002",
   "latitude": "16.4025562"
 },
 {
   "name": "Giligan's Island",
   "category": "Filipino",
   "location": "7 Legarda Rd cor G Del Pilar St, Baguio City",
   "longitude": "120.59094030000006",
   "latitude": "16.4111052"
 },
 {
   "name": "Health 100",
   "category": "Filipino",
   "location": "350 Magsaysay Ave cor Private Rd, Baguio City",
   "longitude": "none",
   "latitude": "none"
 },
 {
   "name": "Jay-J's Inasal",
   "category": "Filipino",
   "location": "Mt. Crest Hotel Legarda Rd, Baguio City",
   "longitude": "120.5904812",
   "latitude": "16.4117262"
 },
 {
   "name": "Kubong sawali",
   "category": "Filipino",
   "location": "Military Cut-Off Road, Baguio City",
   "longitude": "120.59941720000006",
   "latitude": "16.4030681"
 },
 {
   "name": "La Comida de Antonio Ristorante",
   "category": "Spanish",
   "location": "501 La Azotea Bldg, Session Rd, Baguio City",
   "longitude": "none",
   "latitude": "none"
 },
 {
   "name": "Little John's",
   "category": "American",
   "location": "Camp John Hay, Baguio City",
   "longitude": "none",
   "latitude": "none"
 },
 {
   "name": "Lemon and Olives Greek Taverna",
   "category": "Mediterranean",
   "location": "#26 Outlook Drive, Baguio City",
   "longitude": "120.62315650000005",
   "latitude": "16.4108855"
 },
 {
   "name": "Max's Restaurant",
   "category": "Filipino",
   "location": "G/F Porta Vaga Mall, Session Road, Baguio City",
   "longitude": "120.59814460000007",
   "latitude": "16.4123712"
 },
 {
   "name": "Mini Shabu-Shabu",
   "category": "Chinese",
   "location": "3/F SM City Baguio, Baguio City",
   "longitude": "none",
   "latitude": "none"
 },
 {
   "name": "O' Mai Khan",
   "category": "Mongolian",
   "location": "Upper Session Road, Baguio City",
   "longitude": "120.60118720000003",
   "latitude": "16.4065005"
 },
 {
   "name": "Oh My Gulay",
   "category": "Filipino",
   "location": "La Azotea Building, 108 Session Road, Baguio City",
   "longitude": "120.59810670000002",
   "latitude": "16.411751"
 },
 {
   "name": "Ozark Diner",
   "category": "American",
   "location": "2 Bear's Trail cor Bareng Drive, Baguio City",
   "longitude": "120.59385599999996",
   "latitude": "16.383273"
 },
 {
   "name": "Patch Cafe",
   "category": "International",
   "location": "G/F Bloomfield Hotel along Leonard Wood Rd, Baguio City",
   "longitude": "120.60010720000002",
   "latitude": "16.4103738"
 },
 {
   "name": "Pizza Volante",
   "category": "Italian",
   "location": "Session Road, Baguio City",
   "longitude": "none",
   "latitude": "none"
 },
 {
   "name": "Rufo's Famous Tapa",
   "category": "Filipino",
   "location": "Gov. Pack Road, near bus station, Baguio City",
   "longitude": "none",
   "latitude": "none"
 },
 {
   "name": "Route 55 by Hernan's Kitchen",
   "category": "American",
   "location": "#55 Legarda Road, Baguio City",
   "longitude": "none",
   "latitude": "none"
 },
 {
   "name": "Seafood Island Restaurant",
   "category": "Filipino",
   "location": "Baguio Technohub Retail Plaza, Camp John Hay, Baguio City",
   "longitude": "120.60885159999998",
   "latitude": "16.3986476"
 },
 {
   "name": "Secret Garden",
   "category": "Italian",
   "location": "34 Paterno Street, South Drive Rd, Baguio City",
   "longitude": "120.61125760000004",
   "latitude": "16.4108154"
 },
 {
   "name": "Sage Restaurant",
   "category": "American",
   "location": "95 Military Cut-off Road, Baguio City",
   "longitude": "none",
   "latitude": "none"
 },
 {
   "name": "Shakey's",
   "category": "American",
   "location": "3/F SM City Baguio, Luneta Hill Drive, Baguio City",
   "longitude": "none",
   "latitude": "none"
 },
 {
   "name": "Starbucks Coffee",
   "category": "International",
   "location": "G/F SM City Baguio, Baguio City",
   "longitude": "none",
   "latitude": "none"
 },
 {
   "name": "Teriyaki Boy",
   "category": "Japanese",
   "location": "2/F SM City Baguio, Luneta Hill Drive, Baguio City",
   "longitude": "120.59940200000005",
   "latitude": "16.409341"
 },
 {
   "name": "The Kitchen",
   "category": "Filipino",
   "location": "80 Upper Gen. Luna Road, Baguio City",
   "longitude": "120.6026369",
   "latitude": "16.4118626"
 },
 {
   "name": "Vizco's Restaurant and Bakeshop",
   "category": "International",
   "location": "G/F Baguio AyalaLand TechnoHub, Camp John Hay, Baguio City",
   "longitude": "120.60835810000003",
   "latitude": "16.3984469"
 },
 {
   "name": "Wood Nymph",
   "category": "Korean",
   "location": "36 Military Cut-Off Road, Baguio City",
   "longitude": "",
   "latitude": ""
 }
]